{
"random_location":
    [
        {
            "address": "Jl. Dukuh sari, Gg. Kembangsari IV, No. 5",
            "id": "boarding_house",
            "lat": -8.6965304,
            "lng": 115.2174158,
            "name": "Gang Kembangsari IV",
            "district": "Denpasar Selatan",
            "city": "Denpasar"
        },
        {
            "address": "Jl. Dr. Goris No. 7",
            "id": "student_center",
            "lat": -8.6714568,
            "lng": 115.2201663,
            "name": "Student Center Universitas Udayana",
            "district": "Denpasar Selatan",
            "city": "Denpasar"
        },
        {
            "address": "Jl. Raya Kintamni, Br. Kutadalem",
            "id": "pura_penulisan",
            "lat": -8.2091419,
            "lng": 115.3239865,
            "name": "Pura Tegeh Kahuripan",
            "district": "Kinamani",
            "city": "Bangli"
        },
        {
            "address": "Kampus Bukit, Jl. Raya Kampus Unud Jimbaran",
            "id": "udayana",
            "lat": -8.7982674,
            "lng": 115.1702034,
            "name": "Rektorat Universitas Udayana",
            "district": "Kuta Selatan",
            "city": "Badung"
        },
        {
            "address": "Jl. Veteran, No. 68A, SE Supermarket LT. 2, Dangin Puri Kaja",
            "id": "tempat_latihan",
            "lat": -8.6499175,
            "lng": 115.2154169,
            "name": "Master Gym Veteran",
            "district": "Denpasar Utara",
            "city": "Denpasar"
        },
        {
            "address": "Jl. Raya Kampus Unud No.88, Jimbaran",
            "id": "elektro",
            "lat": -8.79637,
            "lng": 115.1750472,
            "name": "Teknik Elektro Universitas Udayana",
            "district": "Kuta Selatan",
            "city": "Badung"
        },
        {
            "address": "Jl. Raya Penelokan",
            "id": "museum",
            "lat": -8.2837555,
            "lng": 115.362357,
            "name": "Musium Geopark Batur",
            "district": "Kintamani",
            "city": "Bangli"
        },
        {
            "address": "Jl. Catur, Belok/Sidan",
            "id": "tukad_bangkung",
            "lat": -8.2965125,
            "lng": 115.2341112,
            "name": "Jembatan tukad Bangkung",
            "district": "Petang",
            "city": "Badung"
        },
        {
            "address": "Jl. Brigjen Ngurah Rai No.36, Kawan, Kec. Bangli, Kabupaten Bangli, Bali 80614",
            "id": "my_school",
            "lat": -8.4381013,
            "lng": 115.3145913,
            "name": "SMA N 1 Bangli",
            "district": "Bangli",
            "city": "Bangli"
        },
        {
            "address": "Jl. Raya Puputan No.142, Panjer",
            "id": "monumen_renon",
            "lat":-8.6722122,
            "lng": 115.2305136,
            "name": "Monumen Bajra Sandhi Renon",
            "district": "Denpasar Selatan",
            "city": "Denpasar"
        }
    ]
}
